EpochTime,DeviceType,GPSMode,ReceiverType,latitude,longitude,speed,course,altitude,seperation,terrainElev,ehspe,espe,evpe,LowestGForce,LowestGForceXAccelleration,LowestGForceYAccelleration,LowestGForceZAccelleration,HighestGForce,HighestGForceXAccelleration,HighestGForceYAccelleration,HighestGForceZAccelleration,pitch,pitchrate,roll,rollrate,yaw,yawrate,platformid,WasActiveSource,FlightType,FlightModeStatus
1736273975,7,3,0,42.764999,-1.642600,68.458313,332.783997,1523.270996,0.000000,1400.000000,0.000000,0.000000,0.000000,0.997566,0.000000,-0.847000,-0.527000,1.001597,-0.002000,-0.848000,-0.533000,999.000000,-5725825688034211243127463739392.000000,999.000000,0.000000,999.000000,0.000000,14,1,3,1
1736273976,7,3,0,42.765301,-1.642800,69.694603,332.776001,1529.913086,0.000000,1400.000000,0.000000,0.000000,0.000000,0.996637,0.000000,-0.849000,-0.522000,1.002442,0.000000,-0.849000,-0.533000,999.000000,-5725825688034211243127463739392.000000,999.000000,0.000000,999.000000,0.000000,14,1,3,1
1736273977,7,3,0,42.765598,-1.643000,70.318573,333.770996,1537.367798,0.000000,1400.000000,0.000000,0.000000,0.000000,0.998097,-0.002000,-0.847000,-0.528000,1.003821,-0.001000,-0.850000,-0.534000,999.000000,-5725825688034211243127463739392.000000,999.000000,0.000000,999.000000,0.000000,14,1,3,1
1736273978,7,3,0,42.765900,-1.643300,70.565445,334.661987,1547.271606,0.000000,1400.000000,0.000000,0.000000,0.000000,0.998417,-0.002000,-0.848000,-0.527000,1.002444,-0.002000,-0.849000,-0.533000,999.000000,-5725825688034211243127463739392.000000,999.000000,0.000000,999.000000,0.000000,14,1,3,1
1736273979,7,3,0,42.766201,-1.643500,70.713173,334.678009,1559.035767,0.000000,1400.000000,0.000000,0.000000,0.000000,0.998095,-0.001000,-0.847000,-0.528000,1.002975,-0.001000,-0.849000,-0.534000,999.000000,-5725825688034211243127463739392.000000,999.000000,0.000000,999.000000,0.000000,14,1,3,1
1736273980,7,3,0,42.766499,-1.643700,71.222466,333.630005,1570.792358,0.000000,1400.000000,0.000000,0.000000,0.000000,0.998309,-0.002000,-0.846000,-0.530000,1.002887,-0.002000,-0.847000,-0.537000,999.000000,-5725825688034211243127463739392.000000,999.000000,0.000000,999.000000,0.000000,14,1,3,1
1736273981,7,3,0,42.766800,-1.643900,72.192444,333.816986,1580.512085,0.000000,1400.000000,0.000000,0.000000,0.000000,0.998097,-0.002000,-0.847000,-0.528000,1.002130,-0.002000,-0.848000,-0.534000,999.000000,-5725825688034211243127463739392.000000,999.000000,0.000000,999.000000,0.000000,14,1,3,1
1736273982,7,3,0,42.767101,-1.644100,73.003021,334.239014,1589.047852,0.000000,1400.000000,0.000000,0.000000,0.000000,0.998095,-0.001000,-0.847000,-0.528000,1.002663,-0.002000,-0.848000,-0.535000,999.000000,-5725825688034211243127463739392.000000,999.000000,0.000000,999.000000,0.000000,14,1,3,1
1736273983,7,3,0,42.767300,-1.644300,73.527863,334.643005,1598.404175,0.000000,1400.000000,0.000000,0.000000,0.000000,0.998625,-0.001000,-0.847000,-0.529000,1.001823,-0.004000,-0.847000,-0.535000,999.000000,-5725825688034211243127463739392.000000,999.000000,0.000000,999.000000,0.000000,14,1,3,1
1736273984,7,3,0,42.767700,-1.644500,73.749458,335.096008,1609.241455,0.000000,1400.000000,0.000000,0.000000,0.000000,0.997247,-0.001000,-0.846000,-0.528000,1.001911,0.000000,-0.849000,-0.532000,999.000000,-5725825688034211243127463739392.000000,999.000000,0.000000,999.000000,0.000000,14,1,3,1
1736273985,7,3,0,42.768002,-1.644800,73.665878,335.446991,1621.812988,0.000000,1400.000000,0.000000,0.000000,0.000000,0.998626,-0.002000,-0.847000,-0.529000,1.000753,-0.003000,-0.847000,-0.533000,999.000000,-5725825688034211243127463739392.000000,999.000000,0.000000,999.000000,0.000000,14,1,3,1
1736273986,5,3,5,51.526276,-0.097838,0.000000,0.000000,81.922958,-150.000000,1.000000,3.257268,0.000000,30.000000,0.998944,-0.001000,-0.848000,-0.528000,1.001820,-0.003000,-0.847000,-0.535000,999.000000,-5725825688034211243127463739392.000000,999.000000,0.000000,999.000000,0.000000,14,2,1,1
1736273986,7,3,0,42.768299,-1.645000,73.374298,335.717987,1636.102051,0.000000,1400.000000,0.000000,0.000000,0.000000,0.997567,-0.001000,-0.847000,-0.527000,0.999685,-0.001000,-0.847000,-0.531000,999.000000,-5725825688034211243127463739392.000000,999.000000,0.000000,999.000000,0.000000,14,1,3,1
1736273987,7,3,0,42.768600,-1.645200,73.218788,335.742004,1650.978638,0.000000,1400.000000,0.000000,0.000000,0.000000,0.998626,-0.002000,-0.847000,-0.529000,1.001065,-0.002000,-0.848000,-0.532000,999.000000,-5725825688034211243127463739392.000000,999.000000,0.000000,999.000000,0.000000,14,1,3,1
1736273988,7,3,0,42.768902,-1.645400,73.119652,335.928009,1665.703125,0.000000,1400.000000,0.000000,0.000000,0.000000,0.999156,-0.002000,-0.847000,-0.530000,1.001065,-0.002000,-0.848000,-0.532000,999.000000,-5725825688034211243127463739392.000000,999.000000,0.000000,999.000000,0.000000,14,1,3,1
1736273989,7,3,0,42.769199,-1.645600,73.086609,336.239990,1680.167969,0.000000,1400.000000,0.000000,0.000000,0.000000,0.999473,-0.001000,-0.848000,-0.529000,1.001596,-0.001000,-0.848000,-0.533000,999.000000,-5725825688034211243127463739392.000000,999.000000,0.000000,999.000000,0.000000,14,1,3,1
1736273990,7,3,0,42.769501,-1.645800,73.106049,336.302002,1694.350342,0.000000,1400.000000,0.000000,0.000000,0.000000,0.999156,-0.002000,-0.847000,-0.530000,1.001064,-0.001000,-0.848000,-0.532000,999.000000,-5725825688034211243127463739392.000000,999.000000,0.000000,999.000000,0.000000,14,1,3,1
1736273991,7,3,0,42.769798,-1.646000,73.162422,336.192993,1708.265137,0.000000,1400.000000,0.000000,0.000000,0.000000,0.999156,-0.002000,-0.847000,-0.530000,1.001913,-0.002000,-0.849000,-0.532000,999.000000,-5725825688034211243127463739392.000000,999.000000,0.000000,999.000000,0.000000,14,1,3,1
1736273992,7,3,0,42.770100,-1.646200,73.247948,336.083008,1721.935669,0.000000,1400.000000,0.000000,0.000000,0.000000,0.998944,-0.001000,-0.848000,-0.528000,1.001913,-0.002000,-0.849000,-0.532000,999.000000,-5725825688034211243127463739392.000000,999.000000,0.000000,999.000000,0.000000,14,1,3,1
1736273993,7,3,0,42.770401,-1.646400,73.358749,336.032013,1735.384888,0.000000,1400.000000,0.000000,0.000000,0.000000,0.998625,-0.001000,-0.847000,-0.529000,1.001597,-0.002000,-0.848000,-0.533000,999.000000,-5725825688034211243127463739392.000000,999.000000,0.000000,999.000000,0.000000,14,1,3,1
1736273994,7,3,0,42.770699,-1.646600,73.481209,336.041992,1748.642700,0.000000,1400.000000,0.000000,0.000000,0.000000,0.998626,-0.002000,-0.847000,-0.529000,1.001597,-0.002000,-0.848000,-0.533000,999.000000,-5725825688034211243127463739392.000000,999.000000,0.000000,999.000000,0.000000,14,1,3,1
1736273995,7,3,0,42.771000,-1.646800,73.611450,336.153015,1761.747681,0.000000,1400.000000,0.000000,0.000000,0.000000,0.998944,-0.001000,-0.848000,-0.528000,1.001064,-0.001000,-0.848000,-0.532000,999.000000,-5725825688034211243127463739392.000000,999.000000,0.000000,999.000000,0.000000,14,1,3,1
1736273996,7,3,0,42.771301,-1.647000,73.739738,336.377991,1774.742432,0.000000,1400.000000,0.000000,0.000000,0.000000,0.999155,-0.001000,-0.847000,-0.530000,1.001064,-0.001000,-0.848000,-0.532000,999.000000,-5725825688034211243127463739392.000000,999.000000,0.000000,999.000000,0.000000,14,1,3,1
1736273997,7,3,0,42.771599,-1.647200,73.877754,336.791992,1787.678833,0.000000,1400.000000,0.000000,0.000000,0.000000,0.999155,-0.001000,-0.847000,-0.530000,1.001596,-0.001000,-0.848000,-0.533000,999.000000,-5725825688034211243127463739392.000000,999.000000,0.000000,999.000000,0.000000,14,1,3,1
1736273998,7,3,0,42.771900,-1.647400,74.002159,337.170990,1800.650879,0.000000,1400.000000,0.000000,0.000000,0.000000,0.999155,-0.001000,-0.847000,-0.530000,1.001064,-0.001000,-0.848000,-0.532000,999.000000,-5725825688034211243127463739392.000000,999.000000,0.000000,999.000000,0.000000,14,1,3,1
1736273999,7,3,0,42.772202,-1.647700,74.095467,337.304993,1813.727417,0.000000,1400.000000,0.000000,0.000000,0.000000,0.999159,-0.003000,-0.847000,-0.530000,1.001065,-0.002000,-0.848000,-0.532000,999.000000,-5725825688034211243127463739392.000000,999.000000,0.000000,999.000000,0.000000,14,1,3,1
1736274000,7,3,0,42.772499,-1.647900,74.144058,337.593994,1827.034424,0.000000,1400.000000,0.000000,0.000000,0.000000,0.998625,-0.001000,-0.847000,-0.529000,1.001596,-0.001000,-0.848000,-0.533000,999.000000,-5725825688034211243127463739392.000000,999.000000,0.000000,999.000000,0.000000,14,1,3,1
1736274001,5,3,5,51.526276,-0.097838,0.000000,0.000000,81.922958,-150.000000,1.000000,3.233339,0.000000,30.000000,0.998625,-0.001000,-0.847000,-0.529000,1.001381,-0.001000,-0.849000,-0.531000,999.000000,-5725825688034211243127463739392.000000,999.000000,0.000000,999.000000,0.000000,14,2,1,1
1736274001,7,3,0,42.772800,-1.648000,74.140175,337.739990,1840.656860,0.000000,1400.000000,0.000000,0.000000,0.000000,0.999473,-0.001000,-0.848000,-0.529000,1.001064,-0.001000,-0.848000,-0.532000,999.000000,-5725825688034211243127463739392.000000,999.000000,0.000000,999.000000,0.000000,14,1,3,1
1736274002,7,3,0,42.773102,-1.648200,74.085747,337.779999,1854.607910,0.000000,1400.000000,0.000000,0.000000,0.000000,0.999156,-0.002000,-0.847000,-0.530000,1.002130,-0.002000,-0.848000,-0.534000,999.000000,-5725825688034211243127463739392.000000,999.000000,0.000000,999.000000,0.000000,14,1,3,1
1736274003,7,3,0,42.773499,-1.648400,73.982719,337.806000,1868.866821,0.000000,1400.000000,0.000000,0.000000,0.000000,0.999155,-0.001000,-0.847000,-0.530000,1.001065,-0.002000,-0.848000,-0.532000,999.000000,-5725825688034211243127463739392.000000,999.000000,0.000000,999.000000,0.000000,14,1,3,1
1736274004,7,3,0,42.773800,-1.648600,73.848595,337.873993,1883.374023,0.000000,1400.000000,0.000000,0.000000,0.000000,0.999156,-0.002000,-0.847000,-0.530000,1.001911,-0.001000,-0.849000,-0.532000,999.000000,-5725825688034211243127463739392.000000,999.000000,0.000000,999.000000,0.000000,14,1,3,1
1736274005,7,3,0,42.774101,-1.648800,73.698921,337.980011,1898.049927,0.000000,1400.000000,0.000000,0.000000,0.000000,0.998840,-0.002000,-0.846000,-0.531000,1.001911,-0.001000,-0.849000,-0.532000,999.000000,-5725825688034211243127463739392.000000,999.000000,0.000000,999.000000,0.000000,14,1,3,1
1736274006,7,3,0,42.774399,-1.649000,73.549248,338.089996,1912.808350,0.000000,1400.000000,0.000000,0.000000,0.000000,0.998626,-0.002000,-0.847000,-0.529000,1.000749,-0.001000,-0.847000,-0.533000,999.000000,-5725825688034211243127463739392.000000,999.000000,0.000000,999.000000,0.000000,14,1,3,1
1736274007,7,3,0,42.774700,-1.649200,73.411232,338.157013,1927.562012,0.000000,1400.000000,0.000000,0.000000,0.000000,0.998625,-0.001000,-0.847000,-0.529000,1.000751,-0.002000,-0.847000,-0.533000,999.000000,-5725825688034211243127463739392.000000,999.000000,0.000000,999.000000,0.000000,14,1,3,1
1736274008,7,3,0,42.775002,-1.649400,73.292656,338.246002,1942.225098,0.000000,1400.000000,0.000000,0.000000,0.000000,0.998095,0.000000,-0.847000,-0.528000,1.001597,-0.002000,-0.848000,-0.533000,999.000000,-5725825688034211243127463739392.000000,999.000000,0.000000,999.000000,0.000000,14,1,3,1
1736274009,7,3,0,42.775299,-1.649600,73.212959,338.382996,1956.722412,0.000000,1400.000000,0.000000,0.000000,0.000000,0.998095,0.000000,-0.847000,-0.528000,1.001065,-0.002000,-0.848000,-0.532000,999.000000,-5725825688034211243127463739392.000000,999.000000,0.000000,999.000000,0.000000,14,1,3,1
1736274010,7,3,0,42.775600,-1.649800,73.176025,338.541992,1970.999390,0.000000,1400.000000,0.000000,0.000000,0.000000,0.998095,-0.001000,-0.847000,-0.528000,1.002132,-0.003000,-0.848000,-0.534000,999.000000,-5725825688034211243127463739392.000000,999.000000,0.000000,999.000000,0.000000,14,1,3,1
1736274011,7,3,0,42.775902,-1.650000,73.189636,338.673004,1985.032837,0.000000,1400.000000,0.000000,0.000000,0.000000,0.998095,-0.001000,-0.847000,-0.528000,1.001065,-0.002000,-0.848000,-0.532000,999.000000,-5725825688034211243127463739392.000000,999.000000,0.000000,999.000000,0.000000,14,1,3,1
1736274012,7,3,0,42.776199,-1.650200,73.230453,338.688995,1998.831055,0.000000,1400.000000,0.000000,0.000000,0.000000,0.999154,0.000000,-0.847000,-0.530000,1.001286,-0.003000,-0.847000,-0.534000,999.000000,-5725825688034211243127463739392.000000,999.000000,0.000000,999.000000,0.000000,14,1,3,1
1736274013,7,3,0,42.776501,-1.650400,73.022461,338.803986,2012.835571,0.000000,1400.000000,0.000000,0.000000,0.000000,0.999155,-0.001000,-0.847000,-0.530000,1.002128,-0.001000,-0.848000,-0.534000,999.000000,-5725825688034211243127463739392.000000,999.000000,0.000000,999.000000,0.000000,14,1,3,1
1736274014,7,3,0,42.776901,-1.650600,72.806694,338.731995,2027.863892,0.000000,1400.000000,0.000000,0.000000,0.000000,0.998626,-0.002000,-0.847000,-0.529000,1.001817,-0.002000,-0.847000,-0.535000,999.000000,-5725825688034211243127463739392.000000,999.000000,0.000000,999.000000,0.000000,14,1,3,1
1736274015,7,3,0,42.777199,-1.650700,72.740608,338.549988,2042.590820,0.000000,1400.000000,0.000000,0.000000,0.000000,0.998212,-0.001000,-0.849000,-0.525000,1.002444,-0.002000,-0.849000,-0.533000,999.000000,-5725825688034211243127463739392.000000,999.000000,0.000000,999.000000,0.000000,14,1,3,1
1736274016,5,3,5,51.526276,-0.097838,0.000000,0.000000,81.922958,-150.000000,1.000000,3.210028,0.000000,30.000000,0.999156,-0.002000,-0.847000,-0.530000,1.000751,-0.002000,-0.847000,-0.533000,999.000000,-5725825688034211243127463739392.000000,999.000000,0.000000,999.000000,0.000000,14,2,1,1
1736274016,7,3,0,42.777500,-1.650900,72.760040,338.473999,2056.840820,0.000000,1400.000000,0.000000,0.000000,0.000000,0.999155,-0.001000,-0.847000,-0.530000,1.000534,-0.002000,-0.848000,-0.531000,999.000000,-5725825688034211243127463739392.000000,999.000000,0.000000,999.000000,0.000000,14,1,3,1
1736274017,7,3,0,42.777802,-1.651100,72.849457,338.329987,2070.582275,0.000000,1400.000000,0.000000,0.000000,0.000000,0.998629,-0.003000,-0.847000,-0.529000,1.001911,-0.001000,-0.849000,-0.532000,999.000000,-5725825688034211243127463739392.000000,999.000000,0.000000,999.000000,0.000000,14,1,3,1
1736274018,7,3,0,42.778099,-1.651300,72.991364,338.410004,2083.908447,0.000000,1400.000000,0.000000,0.000000,0.000000,0.998625,-0.001000,-0.847000,-0.529000,1.001596,-0.001000,-0.848000,-0.533000,999.000000,-5725825688034211243127463739392.000000,999.000000,0.000000,999.000000,0.000000,14,1,3,1
1736274019,7,3,0,42.778400,-1.651500,73.154640,338.343994,2097.052734,0.000000,1400.000000,0.000000,0.000000,0.000000,0.998095,-0.001000,-0.847000,-0.528000,1.001913,-0.002000,-0.849000,-0.532000,999.000000,-0.000905,999.000000,-0.003436,999.000000,-0.003005,14,1,3,1
1736274020,7,3,0,42.778702,-1.651700,73.319870,337.996002,2110.123779,0.000000,1400.000000,0.000000,0.000000,0.000000,0.999473,-0.001000,-0.848000,-0.529000,1.001382,-0.002000,-0.849000,-0.531000,999.000000,-5725825688034211243127463739392.000000,999.000000,0.000000,999.000000,0.000000,14,1,3,1
1736274021,7,3,0,42.778999,-1.651900,73.469543,337.540985,2123.213623,0.000000,1400.000000,0.000000,0.000000,0.000000,0.998625,-0.001000,-0.847000,-0.529000,1.000537,-0.003000,-0.848000,-0.531000,999.000000,-5725825688034211243127463739392.000000,999.000000,0.000000,999.000000,0.000000,14,1,3,1
1736274022,7,3,0,42.779301,-1.652100,73.590065,337.040985,2136.389648,0.000000,1400.000000,0.000000,0.000000,0.000000,0.997366,-0.003000,-0.848000,-0.525000,1.004267,-0.002000,-0.848000,-0.538000,999.000000,-5725825688034211243127463739392.000000,999.000000,0.000000,999.000000,0.000000,14,1,3,1
1736274023,7,3,0,42.779598,-1.652300,73.642548,336.654999,2149.735840,0.000000,1400.000000,0.000000,0.000000,0.000000,0.996836,-0.001000,-0.848000,-0.524000,1.004267,-0.002000,-0.848000,-0.538000,999.000000,-5725825688034211243127463739392.000000,999.000000,0.000000,999.000000,0.000000,14,1,3,1
1736274024,7,3,0,42.779900,-1.652500,73.541466,336.428009,2163.533203,0.000000,1400.000000,0.000000,0.000000,0.000000,0.997778,-0.002000,-0.846000,-0.529000,1.001596,-0.001000,-0.848000,-0.533000,999.000000,-5725825688034211243127463739392.000000,999.000000,0.000000,999.000000,0.000000,14,1,3,1
1736274025,7,3,0,42.780201,-1.652700,73.226562,336.369995,2178.185791,0.000000,1400.000000,0.000000,0.000000,0.000000,0.999155,-0.001000,-0.847000,-0.530000,1.002130,-0.002000,-0.848000,-0.534000,999.000000,-5725825688034211243127463739392.000000,999.000000,0.000000,999.000000,0.000000,14,1,3,1
1736274026,7,3,0,42.780602,-1.653000,72.692009,336.380005,2195.941650,0.000000,1400.000000,0.000000,0.000000,0.000000,0.998309,-0.002000,-0.846000,-0.530000,1.001911,-0.001000,-0.849000,-0.532000,999.000000,-0.000145,999.000000,0.005293,999.000000,-0.001577,14,1,3,1
1736274027,7,3,0,42.780800,-1.653100,72.180779,336.427002,2211.244629,0.000000,1400.000000,0.000000,0.000000,0.000000,0.998945,-0.002000,-0.848000,-0.528000,1.001600,-0.003000,-0.848000,-0.533000,999.000000,-5725825688034211243127463739392.000000,999.000000,0.000000,999.000000,0.000000,14,1,3,1
1736274028,7,3,0,42.781101,-1.653300,71.650108,336.399994,2226.892334,0.000000,1400.000000,0.000000,0.000000,0.000000,0.999155,-0.001000,-0.847000,-0.530000,1.001596,-0.001000,-0.848000,-0.533000,999.000000,-0.000519,999.000000,-0.003401,999.000000,-0.001425,14,1,3,1
1736274029,7,3,0,42.781399,-1.653500,71.084450,336.286011,2243.756348,0.000000,1400.000000,0.000000,0.000000,0.000000,0.997161,0.000000,-0.849000,-0.523000,1.001380,0.000000,-0.849000,-0.531000,999.000000,-5725825688034211243127463739392.000000,999.000000,0.000000,999.000000,0.000000,14,1,3,1
1736274030,7,3,0,42.781700,-1.653700,70.730667,336.114014,2260.328857,0.000000,1400.000000,0.000000,0.000000,0.000000,0.997362,-0.001000,-0.848000,-0.525000,1.001741,-0.004000,-0.845000,-0.538000,999.000000,-5725825688034211243127463739392.000000,999.000000,0.000000,999.000000,0.000000,14,1,3,1
1736274031,5,3,5,51.526276,-0.097839,0.000000,0.000000,81.922958,-150.000000,1.000000,3.187312,0.000000,30.000000,0.997161,0.000000,-0.849000,-0.523000,1.002661,0.000000,-0.848000,-0.535000,999.000000,-5725825688034211243127463739392.000000,999.000000,0.000000,999.000000,0.000000,14,2,1,1
1736274031,7,3,0,42.782001,-1.654000,70.872574,335.876007,2276.944580,0.000000,1400.000000,0.000000,0.000000,0.000000,0.999265,0.000000,-0.849000,-0.527000,1.003199,-0.003000,-0.848000,-0.536000,999.000000,-5725825688034211243127463739392.000000,999.000000,0.000000,999.000000,0.000000,14,1,3,1
1736274032,7,3,0,42.782299,-1.654100,71.045570,336.140015,2289.102783,0.000000,1400.000000,0.000000,0.000000,0.000000,0.998097,-0.002000,-0.847000,-0.528000,1.002128,-0.001000,-0.848000,-0.534000,999.000000,-5725825688034211243127463739392.000000,999.000000,0.000000,999.000000,0.000000,14,1,3,1
1736274033,7,3,0,42.782600,-1.654300,71.333260,336.765015,2301.305176,0.000000,1400.000000,0.000000,0.000000,0.000000,0.998417,-0.002000,-0.848000,-0.527000,1.002128,-0.001000,-0.848000,-0.534000,999.000000,-5725825688034211243127463739392.000000,999.000000,0.000000,999.000000,0.000000,14,1,3,1
1736274034,7,3,0,42.782902,-1.654500,71.622894,336.894989,2313.035400,0.000000,1400.000000,0.000000,0.000000,0.000000,0.996719,-0.002000,-0.846000,-0.527000,1.003118,-0.003000,-0.846000,-0.539000,999.000000,-5725825688034211243127463739392.000000,999.000000,0.000000,999.000000,0.000000,14,1,3,1
1736274035,7,3,0,42.783199,-1.654700,72.005829,336.773987,2324.470703,0.000000,1400.000000,0.000000,0.000000,0.000000,0.996719,-0.002000,-0.846000,-0.527000,1.002130,-0.002000,-0.848000,-0.534000,999.000000,-5725825688034211243127463739392.000000,999.000000,0.000000,999.000000,0.000000,14,1,3,1
1736274036,7,3,0,42.783501,-1.654900,72.666740,336.953003,2334.731934,0.000000,1400.000000,0.000000,0.000000,0.000000,0.998537,0.000000,-0.850000,-0.524000,1.002130,-0.002000,-0.848000,-0.534000,999.000000,-5725825688034211243127463739392.000000,999.000000,0.000000,999.000000,0.000000,14,1,3,1
1736274037,7,3,0,42.783798,-1.655100,73.380127,337.609009,2344.003662,0.000000,1400.000000,0.000000,0.000000,0.000000,0.997568,-0.002000,-0.847000,-0.527000,1.001603,-0.004000,-0.848000,-0.533000,999.000000,-5725825688034211243127463739392.000000,999.000000,0.000000,999.000000,0.000000,14,1,3,1
1736274038,7,3,0,42.784100,-1.655300,73.924408,338.605011,2353.321533,0.000000,1400.000000,0.000000,0.000000,0.000000,0.997568,-0.002000,-0.847000,-0.527000,1.002976,-0.002000,-0.849000,-0.534000,999.000000,-0.003500,999.000000,0.000964,999.000000,-0.001543,14,1,3,1
1736274039,7,3,0,42.784401,-1.655500,74.221817,339.010010,2363.635254,0.000000,1400.000000,0.000000,0.000000,0.000000,0.998095,-0.001000,-0.847000,-0.528000,1.001597,-0.002000,-0.848000,-0.533000,999.000000,-0.000526,999.000000,0.003368,999.000000,-0.000853,14,1,3,1
1736274040,7,3,0,42.784801,-1.655700,74.249031,339.359985,2375.267090,0.000000,1400.000000,0.000000,0.000000,0.000000,0.998945,-0.002000,-0.848000,-0.528000,1.001701,-0.002000,-0.850000,-0.530000,999.000000,-5725825688034211243127463739392.000000,999.000000,0.000000,999.000000,0.000000,14,1,3,1
1736274041,7,3,0,42.785099,-1.655900,74.072136,340.183014,2388.259766,0.000000,1400.000000,0.000000,0.000000,0.000000,0.998415,0.000000,-0.848000,-0.527000,1.001382,-0.002000,-0.849000,-0.531000,999.000000,-5725825688034211243127463739392.000000,999.000000,0.000000,999.000000,0.000000,14,1,3,1
1736274042,7,3,0,42.785400,-1.656100,73.712524,341.190002,2402.678467,0.000000,1400.000000,0.000000,0.000000,0.000000,0.998095,-0.001000,-0.847000,-0.528000,1.001913,-0.002000,-0.849000,-0.532000,999.000000,-0.000046,999.000000,-0.003314,999.000000,-0.002708,14,1,3,1
1736274043,7,3,0,42.785702,-1.656200,73.154640,341.263000,2418.410156,0.000000,1400.000000,0.000000,0.000000,0.000000,0.998945,-0.002000,-0.848000,-0.528000,1.001065,-0.002000,-0.848000,-0.532000,999.000000,-5725825688034211243127463739392.000000,999.000000,0.000000,999.000000,0.000000,14,1,3,1
1736274044,7,3,0,42.785999,-1.656400,72.460693,341.195007,2435.233643,0.000000,1400.000000,0.000000,0.000000,0.000000,0.998626,-0.002000,-0.847000,-0.529000,1.001382,-0.002000,-0.849000,-0.531000,999.000000,-5725825688034211243127463739392.000000,999.000000,0.000000,999.000000,0.000000,14,1,3,1
1736274045,7,3,0,42.786301,-1.656600,71.706482,341.195007,2452.774658,0.000000,1400.000000,0.000000,0.000000,0.000000,0.999474,-0.002000,-0.848000,-0.529000,1.001065,-0.002000,-0.848000,-0.532000,999.000000,-5725825688034211243127463739392.000000,999.000000,0.000000,999.000000,0.000000,14,1,3,1
1736274046,5,3,5,51.526272,-0.097839,0.000000,0.000000,81.922958,-150.000000,1.000000,3.165167,0.000000,30.000000,0.998097,-0.002000,-0.847000,-0.528000,1.001065,-0.002000,-0.848000,-0.532000,999.000000,-5725825688034211243127463739392.000000,999.000000,0.000000,999.000000,0.000000,14,2,1,1
1736274046,7,3,0,42.786598,-1.656700,70.969765,341.167999,2470.595459,0.000000,1400.000000,0.000000,0.000000,0.000000,1.000003,-0.001000,-0.848000,-0.530000,1.000534,-0.002000,-0.848000,-0.531000,999.000000,-5725825688034211243127463739392.000000,999.000000,0.000000,999.000000,0.000000,14,1,3,1
1736274047,7,3,0,42.786900,-1.656900,70.316628,341.092010,2488.266846,0.000000,1400.000000,0.000000,0.000000,0.000000,0.998625,-0.001000,-0.847000,-0.529000,1.001913,-0.002000,-0.849000,-0.532000,999.000000,-0.001367,999.000000,0.003075,999.000000,-0.002596,14,1,3,1
1736274048,7,3,0,42.787201,-1.657100,69.803459,340.968994,2505.402832,0.000000,1400.000000,0.000000,0.000000,0.000000,0.998625,-0.001000,-0.847000,-0.529000,1.002443,-0.001000,-0.849000,-0.533000,999.000000,-5725825688034211243127463739392.000000,999.000000,0.000000,999.000000,0.000000,14,1,3,1
1736274049,7,3,0,42.787498,-1.657200,69.471062,340.760986,2521.690674,0.000000,1400.000000,0.000000,0.000000,0.000000,0.998625,-0.001000,-0.847000,-0.529000,1.001913,-0.002000,-0.849000,-0.532000,999.000000,-5725825688034211243127463739392.000000,999.000000,0.000000,999.000000,0.000000,14,1,3,1
1736274050,7,3,0,42.787800,-1.657400,69.344711,340.455994,2536.909668,0.000000,1400.000000,0.000000,0.000000,0.000000,0.998307,-0.001000,-0.846000,-0.530000,1.001911,-0.001000,-0.849000,-0.532000,999.000000,-5725825688034211243127463739392.000000,999.000000,0.000000,999.000000,0.000000,14,1,3,1
1736274051,7,3,0,42.788101,-1.657600,69.422462,340.066010,2550.945801,0.000000,1400.000000,0.000000,0.000000,0.000000,0.999685,-0.001000,-0.847000,-0.531000,1.002443,-0.001000,-0.849000,-0.533000,999.000000,-5725825688034211243127463739392.000000,999.000000,0.000000,999.000000,0.000000,14,1,3,1
1736274052,7,3,0,42.788399,-1.657800,69.692657,339.579010,2563.789307,0.000000,1400.000000,0.000000,0.000000,0.000000,0.999685,-0.001000,-0.847000,-0.531000,1.001911,-0.001000,-0.849000,-0.532000,999.000000,-5725825688034211243127463739392.000000,999.000000,0.000000,999.000000,0.000000,14,1,3,1
1736274053,7,3,0,42.788700,-1.657900,70.120300,339.027008,2575.532227,0.000000,1400.000000,0.000000,0.000000,0.000000,0.999156,-0.002000,-0.847000,-0.530000,1.001699,-0.001000,-0.850000,-0.530000,999.000000,-5725825688034211243127463739392.000000,999.000000,0.000000,999.000000,0.000000,14,1,3,1
1736274054,7,3,0,42.789001,-1.658100,70.660690,338.467010,2586.356934,0.000000,1400.000000,0.000000,0.000000,0.000000,0.997568,-0.002000,-0.847000,-0.527000,1.001817,-0.002000,-0.847000,-0.535000,999.000000,-5725825688034211243127463739392.000000,999.000000,0.000000,999.000000,0.000000,14,1,3,1
1736274055,7,3,0,42.789299,-1.658300,71.234123,337.856995,2596.599121,0.000000,1400.000000,0.000000,0.000000,0.000000,0.996310,0.000000,-0.848000,-0.523000,1.004502,-0.004000,-0.847000,-0.540000,999.000000,-5725825688034211243127463739392.000000,999.000000,0.000000,999.000000,0.000000,14,1,3,1
1736274056,7,3,0,42.789600,-1.658500,72.000000,337.302002,2606.038818,0.000000,1400.000000,0.000000,0.000000,0.000000,0.996113,0.000000,-0.849000,-0.521000,1.000753,-0.003000,-0.847000,-0.533000,999.000000,-5725825688034211243127463739392.000000,999.000000,0.000000,999.000000,0.000000,14,1,3,1
1736274057,7,3,0,42.789902,-1.658700,72.723106,337.451996,2614.827148,0.000000,1400.000000,0.000000,0.000000,0.000000,0.996113,0.000000,-0.849000,-0.521000,1.001817,-0.002000,-0.847000,-0.535000,999.000000,-5725825688034211243127463739392.000000,999.000000,0.000000,999.000000,0.000000,14,1,3,1
1736274058,7,3,0,42.790199,-1.658900,73.333481,337.718994,2623.913818,0.000000,1400.000000,0.000000,0.000000,0.000000,0.998095,-0.001000,-0.847000,-0.528000,1.001597,-0.002000,-0.848000,-0.533000,999.000000,-5725825688034211243127463739392.000000,999.000000,0.000000,999.000000,0.000000,14,1,3,1
1736274059,7,3,0,42.790501,-1.659100,73.788338,337.734985,2633.699219,0.000000,1400.000000,0.000000,0.000000,0.000000,0.997888,0.000000,-0.848000,-0.526000,1.003116,-0.002000,-0.846000,-0.539000,999.000000,-0.001204,999.000000,-0.022745,999.000000,-0.002994,14,1,3,1
1736274060,7,3,0,42.790798,-1.659300,74.046867,337.687012,2644.489258,0.000000,1400.000000,0.000000,0.000000,0.000000,0.997890,-0.002000,-0.848000,-0.526000,1.003116,-0.002000,-0.846000,-0.539000,999.000000,-5725825688034211243127463739392.000000,999.000000,0.000000,999.000000,0.000000,14,1,3,1
1736274061,5,3,5,51.526272,-0.097839,0.000000,0.000000,81.922958,-150.000000,1.000000,3.143574,0.000000,30.000000,0.998097,-0.002000,-0.847000,-0.528000,1.001170,-0.001000,-0.850000,-0.529000,999.000000,-5725825688034211243127463739392.000000,999.000000,0.000000,999.000000,0.000000,14,2,1,1
1736274061,7,3,0,42.791100,-1.659500,74.095467,337.657013,2656.467773,0.000000,1400.000000,0.000000,0.000000,0.000000,0.998097,-0.002000,-0.847000,-0.528000,1.001596,-0.001000,-0.848000,-0.533000,999.000000,-5725825688034211243127463739392.000000,999.000000,0.000000,999.000000,0.000000,14,1,3,1
1736274062,7,3,0,42.791500,-1.659700,73.938011,337.635986,2669.681396,0.000000,1400.000000,0.000000,0.000000,0.000000,0.998095,-0.001000,-0.847000,-0.528000,1.001596,-0.001000,-0.848000,-0.533000,999.000000,-5725825688034211243127463739392.000000,999.000000,0.000000,999.000000,0.000000,14,1,3,1
1736274063,7,3,0,42.791801,-1.659900,73.685310,337.617004,2683.933350,0.000000,1400.000000,0.000000,0.000000,0.000000,0.998945,-0.002000,-0.848000,-0.528000,1.001823,-0.004000,-0.847000,-0.535000,999.000000,-5725825688034211243127463739392.000000,999.000000,0.000000,999.000000,0.000000,14,1,3,1
1736274064,7,3,0,42.792099,-1.660100,73.370407,337.644989,2698.798584,0.000000,1400.000000,0.000000,0.000000,0.000000,0.998095,0.000000,-0.847000,-0.528000,1.002661,-0.001000,-0.848000,-0.535000,999.000000,0.000252,999.000000,-0.000656,999.000000,0.000000,14,1,3,1
1736274065,7,3,0,42.792400,-1.660300,73.047729,337.691010,2714.025146,0.000000,1400.000000,0.000000,0.000000,0.000000,0.998416,-0.001000,-0.848000,-0.527000,1.001911,0.000000,-0.849000,-0.532000,999.000000,-5725825688034211243127463739392.000000,999.000000,0.000000,999.000000,0.000000,14,1,3,1
1736274066,7,3,0,42.792702,-1.660500,72.744492,337.729004,2729.318359,0.000000,1400.000000,0.000000,0.000000,0.000000,0.995069,-0.001000,-0.849000,-0.519000,1.004747,-0.006000,-0.846000,-0.542000,999.000000,0.001375,999.000000,0.009766,999.000000,-0.000949,14,1,3,1
1736274067,7,3,0,42.792999,-1.660700,72.505402,337.709991,2744.459229,0.000000,1400.000000,0.000000,0.000000,0.000000,0.998416,-0.001000,-0.848000,-0.527000,1.002128,-0.001000,-0.848000,-0.534000,999.000000,-5725825688034211243127463739392.000000,999.000000,0.000000,999.000000,0.000000,14,1,3,1
1736274068,7,3,0,42.793301,-1.660900,72.359612,337.691986,2759.198486,0.000000,1400.000000,0.000000,0.000000,0.000000,0.996722,-0.003000,-0.846000,-0.527000,1.004577,-0.002000,-0.849000,-0.537000,999.000000,-5725825688034211243127463739392.000000,999.000000,0.000000,999.000000,0.000000,14,1,3,1
1736274069,7,3,0,42.793598,-1.661000,72.311012,337.644012,2773.397949,0.000000,1400.000000,0.000000,0.000000,0.000000,0.996310,0.000000,-0.848000,-0.523000,1.002443,-0.001000,-0.849000,-0.533000,999.000000,-5725825688034211243127463739392.000000,999.000000,0.000000,999.000000,0.000000,14,1,3,1
1736274070,7,3,0,42.793900,-1.661200,72.390717,337.598999,2786.932373,0.000000,1400.000000,0.000000,0.000000,0.000000,0.998944,-0.001000,-0.848000,-0.528000,1.003429,-0.004000,-0.847000,-0.538000,999.000000,-0.001407,999.000000,-0.001291,999.000000,-0.000729,14,1,3,1
1736274071,7,3,0,42.794201,-1.661400,72.588982,337.617004,2799.733887,0.000000,1400.000000,0.000000,0.000000,0.000000,0.997489,0.000000,-0.850000,-0.522000,1.003895,-0.004000,-0.845000,-0.542000,999.000000,0.000950,999.000000,-0.003618,999.000000,-0.001317,14,1,3,1
1736274072,7,3,0,42.794498,-1.661600,72.878616,337.562988,2811.876221,0.000000,1400.000000,0.000000,0.000000,0.000000,0.995785,0.000000,-0.848000,-0.522000,1.002130,-0.002000,-0.848000,-0.534000,999.000000,-5725825688034211243127463739392.000000,999.000000,0.000000,999.000000,0.000000,14,1,3,1
1736274073,7,3,0,42.794800,-1.661800,73.183800,337.485992,2823.558105,0.000000,1400.000000,0.000000,0.000000,0.000000,0.995785,0.000000,-0.848000,-0.522000,1.002045,-0.003000,-0.846000,-0.537000,999.000000,-5725825688034211243127463739392.000000,999.000000,0.000000,999.000000,0.000000,14,1,3,1
1736274074,7,3,0,42.795101,-1.662000,73.432617,337.425995,2835.166748,0.000000,1300.000000,0.000000,0.000000,0.000000,0.997361,0.000000,-0.848000,-0.525000,1.002443,-0.001000,-0.849000,-0.533000,999.000000,-5725825688034211243127463739392.000000,999.000000,0.000000,999.000000,0.000000,14,1,3,1
1736274075,7,3,0,42.795399,-1.662200,73.607559,337.442993,2847.018066,0.000000,1300.000000,0.000000,0.000000,0.000000,0.998944,-0.001000,-0.848000,-0.528000,1.001065,-0.002000,-0.848000,-0.532000,999.000000,-5725825688034211243127463739392.000000,999.000000,0.000000,999.000000,0.000000,14,1,3,1
1736274076,5,3,5,51.526272,-0.097839,0.000000,0.000000,81.922958,-150.000000,1.000000,3.122438,0.000000,30.000000,0.999473,-0.001000,-0.848000,-0.529000,1.001381,-0.001000,-0.849000,-0.531000,999.000000,-5725825688034211243127463739392.000000,999.000000,0.000000,999.000000,0.000000,14,2,1,1
1736274076,7,3,0,42.795700,-1.662400,73.708641,337.553986,2859.218750,0.000000,1300.000000,0.000000,0.000000,0.000000,1.000003,-0.001000,-0.848000,-0.530000,1.000533,-0.001000,-0.848000,-0.531000,999.000000,-5725825688034211243127463739392.000000,999.000000,0.000000,999.000000,0.000000,14,1,3,1
1736274077,7,3,0,42.796001,-1.662600,73.739738,337.743011,2871.822266,0.000000,1300.000000,0.000000,0.000000,0.000000,0.998625,-0.001000,-0.847000,-0.529000,1.001065,-0.002000,-0.848000,-0.532000,999.000000,-5725825688034211243127463739392.000000,999.000000,0.000000,999.000000,0.000000,14,1,3,1
1736274078,7,3,0,42.796398,-1.662800,73.702805,337.989990,2884.851074,0.000000,1300.000000,0.000000,0.000000,0.000000,0.998625,-0.001000,-0.847000,-0.529000,1.001065,-0.002000,-0.848000,-0.532000,999.000000,36155495602942166556584443904.000000,999.000000,0.000000,999.000000,-0.000000,14,1,3,1
1736274079,7,3,0,42.796700,-1.663000,73.605614,338.201996,2898.295654,0.000000,1300.000000,0.000000,0.000000,0.000000,0.999156,-0.002000,-0.847000,-0.530000,1.001597,-0.002000,-0.848000,-0.533000,999.000000,-5725825688034211243127463739392.000000,999.000000,0.000000,999.000000,0.000000,14,1,3,1
1736274080,7,3,0,42.797001,-1.663200,73.448166,338.359985,2912.113770,0.000000,1300.000000,0.000000,0.000000,0.000000,0.998626,-0.002000,-0.847000,-0.529000,1.001597,-0.002000,-0.848000,-0.533000,999.000000,-5725825688034211243127463739392.000000,999.000000,0.000000,999.000000,0.000000,14,1,3,1
1736274081,7,3,0,42.797298,-1.663400,73.148811,338.084015,2926.140381,0.000000,1400.000000,0.000000,0.000000,0.000000,0.997888,-0.001000,-0.848000,-0.526000,1.001284,-0.002000,-0.847000,-0.534000,999.000000,-291457507999251718471562559488.000000,999.000000,0.000000,999.000000,0.000000,14,1,3,1
1736274082,7,3,0,42.797600,-1.663600,72.857239,338.824005,2939.561279,0.000000,1400.000000,0.000000,0.000000,0.000000,0.998307,-0.001000,-0.846000,-0.530000,1.001382,-0.002000,-0.849000,-0.531000,999.000000,-5725825688034211243127463739392.000000,999.000000,0.000000,999.000000,0.000000,14,1,3,1
1736274083,7,3,0,42.797901,-1.663700,72.816414,342.350006,2951.046631,0.000000,1400.000000,0.000000,0.000000,0.000000,0.998626,-0.002000,-0.847000,-0.529000,1.001284,-0.002000,-0.847000,-0.534000,999.000000,-5725825688034211243127463739392.000000,999.000000,0.000000,999.000000,0.000000,14,1,3,1
1736274084,7,3,0,42.798199,-1.663800,72.969978,348.376007,2959.967529,0.000000,1400.000000,0.000000,0.000000,0.000000,0.998943,0.000000,-0.848000,-0.528000,1.000753,-0.003000,-0.847000,-0.533000,999.000000,-5725825688034211243127463739392.000000,999.000000,0.000000,999.000000,0.000000,14,1,3,1
1736274085,7,3,0,42.798599,-1.663900,72.882507,355.230988,2967.882324,0.000000,1400.000000,0.000000,0.000000,0.000000,0.998625,-0.001000,-0.847000,-0.529000,1.002130,-0.002000,-0.848000,-0.534000,999.000000,-5725825688034211243127463739392.000000,999.000000,0.000000,999.000000,0.000000,14,1,3,1
1736274086,7,3,0,42.798901,-1.663900,72.750320,1.802000,2975.481689,0.000000,1400.000000,0.000000,0.000000,0.000000,0.998416,-0.001000,-0.848000,-0.527000,1.001820,-0.003000,-0.847000,-0.535000,999.000000,-5725825688034211243127463739392.000000,999.000000,0.000000,999.000000,0.000000,14,1,3,1
1736274087,7,3,0,42.799198,-1.663900,72.608421,8.535000,2982.551758,0.000000,1300.000000,0.000000,0.000000,0.000000,0.998840,-0.002000,-0.846000,-0.531000,1.001820,-0.003000,-0.847000,-0.535000,999.000000,-5725825688034211243127463739392.000000,999.000000,0.000000,999.000000,0.000000,14,1,3,1
1736274088,7,3,0,42.799599,-1.663800,72.493736,15.719000,2988.891846,0.000000,1300.000000,0.000000,0.000000,0.000000,0.999155,-0.001000,-0.847000,-0.530000,1.000851,-0.001000,-0.849000,-0.530000,999.000000,-5725825688034211243127463739392.000000,999.000000,0.000000,999.000000,0.000000,14,1,3,1
1736274089,7,3,0,42.799900,-1.663700,72.425705,23.349001,2994.385742,0.000000,1300.000000,0.000000,0.000000,0.000000,0.998840,-0.002000,-0.846000,-0.531000,1.000534,-0.002000,-0.848000,-0.531000,999.000000,0.000401,999.000000,-0.005851,999.000000,-0.002082,14,1,3,1
1736274090,7,3,0,42.800201,-1.663500,72.419868,31.348000,2998.972168,0.000000,1300.000000,0.000000,0.000000,0.000000,0.998625,-0.001000,-0.847000,-0.529000,1.001065,-0.002000,-0.848000,-0.532000,999.000000,-5725825688034211243127463739392.000000,999.000000,0.000000,999.000000,0.000000,14,1,3,1
1736274091,5,3,5,51.526272,-0.097840,0.000000,0.000000,81.922958,-150.000000,1.000000,3.101887,0.000000,30.000000,0.999155,-0.001000,-0.847000,-0.530000,1.001065,-0.002000,-0.848000,-0.532000,999.000000,-5725825688034211243127463739392.000000,999.000000,0.000000,999.000000,0.000000,14,2,1,1
1736274091,7,3,0,42.800499,-1.663200,72.485962,39.713001,3002.586182,0.000000,1300.000000,0.000000,0.000000,0.000000,1.000004,-0.002000,-0.848000,-0.530000,1.000534,-0.002000,-0.848000,-0.531000,999.000000,-5725825688034211243127463739392.000000,999.000000,0.000000,999.000000,0.000000,14,1,3,1
1736274092,7,3,0,42.800701,-1.662900,72.639526,48.512001,3005.164795,0.000000,1300.000000,0.000000,0.000000,0.000000,0.998944,-0.001000,-0.848000,-0.528000,1.001381,-0.001000,-0.849000,-0.531000,999.000000,-5725825688034211243127463739392.000000,999.000000,0.000000,999.000000,0.000000,14,1,3,1
1736274093,7,3,0,42.800900,-1.662600,72.886391,57.742001,3006.756836,0.000000,1300.000000,0.000000,0.000000,0.000000,0.998626,-0.002000,-0.847000,-0.529000,1.001381,-0.001000,-0.849000,-0.531000,999.000000,-5725825688034211243127463739392.000000,999.000000,0.000000,999.000000,0.000000,14,1,3,1
1736274094,7,3,0,42.801102,-1.662200,73.220734,67.415001,3007.548828,0.000000,1300.000000,0.000000,0.000000,0.000000,0.998417,-0.002000,-0.848000,-0.527000,1.002128,-0.001000,-0.848000,-0.534000,999.000000,-5725825688034211243127463739392.000000,999.000000,0.000000,999.000000,0.000000,14,1,3,1
1736274095,7,3,0,42.801201,-1.661700,73.547302,77.461998,3008.282715,0.000000,1300.000000,0.000000,0.000000,0.000000,0.998625,-0.001000,-0.847000,-0.529000,1.002661,-0.001000,-0.848000,-0.535000,999.000000,-5725825688034211243127463739392.000000,999.000000,0.000000,999.000000,0.000000,14,1,3,1
1736274096,7,3,0,42.801300,-1.661300,73.704750,87.335999,3010.446777,0.000000,1300.000000,0.000000,0.000000,0.000000,0.998944,-0.001000,-0.848000,-0.528000,1.000751,-0.002000,-0.847000,-0.533000,999.000000,-5725825688034211243127463739392.000000,999.000000,0.000000,999.000000,0.000000,14,1,3,1
1736274097,7,3,0,42.801300,-1.660800,73.238228,97.417000,3016.132568,0.000000,1400.000000,0.000000,0.000000,0.000000,0.996966,-0.001000,-0.850000,-0.521000,1.001596,-0.001000,-0.848000,-0.533000,999.000000,-5725825688034211243127463739392.000000,999.000000,0.000000,999.000000,0.000000,14,1,3,1
1736274098,7,3,0,42.801201,-1.660400,71.768684,105.027000,3028.914062,0.000000,1400.000000,0.000000,0.000000,0.000000,0.998417,-0.002000,-0.848000,-0.527000,1.004265,-0.001000,-0.848000,-0.538000,999.000000,-5725825688034211243127463739392.000000,999.000000,0.000000,999.000000,0.000000,14,1,3,1
1736274099,7,3,0,42.801102,-1.659900,70.961990,108.444000,3045.969727,0.000000,1400.000000,0.000000,0.000000,0.000000,0.997161,0.000000,-0.849000,-0.523000,1.001603,-0.004000,-0.848000,-0.533000,999.000000,-5725825688034211243127463739392.000000,999.000000,0.000000,999.000000,0.000000,14,1,3,1
1736274100,7,3,0,42.800999,-1.659500,70.649025,111.323997,3062.305176,0.000000,1400.000000,0.000000,0.000000,0.000000,0.997161,0.000000,-0.849000,-0.523000,1.003509,-0.002000,-0.849000,-0.535000,999.000000,-5725825688034211243127463739392.000000,999.000000,0.000000,999.000000,0.000000,14,1,3,1
1736274101,7,3,0,42.800900,-1.659100,70.456589,113.847000,3077.626221,0.000000,1400.000000,0.000000,0.000000,0.000000,0.999156,-0.002000,-0.847000,-0.530000,1.001913,-0.002000,-0.849000,-0.532000,999.000000,-5725825688034211243127463739392.000000,999.000000,0.000000,999.000000,0.000000,14,1,3,1
1736274102,7,3,0,42.800701,-1.658700,70.308853,115.080002,3092.480713,0.000000,1400.000000,0.000000,0.000000,0.000000,0.998095,-0.001000,-0.847000,-0.528000,1.001065,-0.002000,-0.848000,-0.532000,999.000000,-5725825688034211243127463739392.000000,999.000000,0.000000,999.000000,0.000000,14,1,3,1
1736274103,7,3,0,42.800598,-1.658300,69.995895,115.190002,3107.428711,0.000000,1400.000000,0.000000,0.000000,0.000000,0.999156,-0.002000,-0.847000,-0.530000,1.001600,-0.003000,-0.848000,-0.533000,999.000000,-5725825688034211243127463739392.000000,999.000000,0.000000,999.000000,0.000000,14,1,3,1
1736274104,7,3,0,42.800499,-1.657900,69.486610,114.227997,3123.269287,0.000000,1400.000000,0.000000,0.000000,0.000000,0.996403,-0.003000,-0.845000,-0.528000,1.003959,-0.002000,-0.847000,-0.539000,999.000000,-5725825688034211243127463739392.000000,999.000000,0.000000,999.000000,0.000000,14,1,3,1
1736274105,7,3,0,42.800301,-1.657500,69.255295,113.388000,3138.997070,0.000000,1400.000000,0.000000,0.000000,0.000000,0.997777,-0.001000,-0.846000,-0.529000,1.001603,-0.004000,-0.848000,-0.533000,999.000000,-5725825688034211243127463739392.000000,999.000000,0.000000,999.000000,0.000000,14,1,3,1
1736274106,5,3,5,51.526272,-0.097840,0.000000,0.000000,81.922958,-150.000000,1.000000,3.081821,0.000000,30.000000,0.998416,-0.001000,-0.848000,-0.527000,1.002443,-0.001000,-0.849000,-0.533000,999.000000,-5725825688034211243127463739392.000000,999.000000,0.000000,999.000000,0.000000,14,2,1,1
1736274106,7,3,0,42.800201,-1.657100,69.216415,113.616997,3153.671875,0.000000,1400.000000,0.000000,0.000000,0.000000,0.999155,-0.001000,-0.847000,-0.530000,1.000217,-0.001000,-0.847000,-0.532000,999.000000,-5725825688034211243127463739392.000000,999.000000,0.000000,999.000000,0.000000,14,1,3,1
1736274107,7,3,0,42.800098,-1.656700,69.354431,113.754997,3167.151855,0.000000,1400.000000,0.000000,0.000000,0.000000,0.998944,-0.001000,-0.848000,-0.528000,1.001911,-0.001000,-0.849000,-0.532000,999.000000,-5725825688034211243127463739392.000000,999.000000,0.000000,999.000000,0.000000,14,1,3,1
1736274108,7,3,0,42.799900,-1.656300,69.628510,113.404999,3179.535156,0.000000,1400.000000,0.000000,0.000000,0.000000,0.999155,-0.001000,-0.847000,-0.530000,1.001911,-0.001000,-0.849000,-0.532000,999.000000,-5725825688034211243127463739392.000000,999.000000,0.000000,999.000000,0.000000,14,1,3,1
1736274109,7,3,0,42.799801,-1.655900,70.009506,112.886002,3190.992188,0.000000,1400.000000,0.000000,0.000000,0.000000,0.999156,-0.002000,-0.847000,-0.530000,1.001065,-0.002000,-0.848000,-0.532000,999.000000,0.000077,999.000000,-0.001254,999.000000,-0.000976,14,1,3,1
1736274110,7,3,0,42.799702,-1.655500,70.464363,112.388000,3201.698242,0.000000,1400.000000,0.000000,0.000000,0.000000,0.999154,0.000000,-0.847000,-0.530000,1.001065,-0.002000,-0.848000,-0.532000,999.000000,-5725825688034211243127463739392.000000,999.000000,0.000000,999.000000,0.000000,14,1,3,1
1736274111,7,3,0,42.799500,-1.655100,70.956154,111.935997,3211.864746,0.000000,1400.000000,0.000000,0.000000,0.000000,0.998944,-0.001000,-0.848000,-0.528000,1.001597,-0.002000,-0.848000,-0.533000,999.000000,0.000442,999.000000,0.001774,999.000000,-0.001779,14,1,3,1
1736274112,7,3,0,42.799400,-1.654700,71.123329,111.748001,3222.575684,0.000000,1400.000000,0.000000,0.000000,0.000000,0.998625,-0.001000,-0.847000,-0.529000,1.002128,-0.001000,-0.848000,-0.534000,999.000000,-5725825688034211243127463739392.000000,999.000000,0.000000,999.000000,0.000000,14,1,3,1
1736274113,7,3,0,42.799301,-1.654300,70.909500,110.630997,3235.217285,0.000000,1400.000000,0.000000,0.000000,0.000000,0.997991,-0.001000,-0.845000,-0.531000,1.002443,-0.001000,-0.849000,-0.533000,999.000000,-5725825688034211243127463739392.000000,999.000000,0.000000,999.000000,0.000000,14,1,3,1
1736274114,7,3,0,42.799198,-1.653900,70.392441,108.512001,3249.898682,0.000000,1400.000000,0.000000,0.000000,0.000000,0.998838,-0.001000,-0.846000,-0.531000,1.001065,-0.002000,-0.848000,-0.532000,999.000000,-5725825688034211243127463739392.000000,999.000000,0.000000,999.000000,0.000000,14,1,3,1
1736274115,7,3,0,42.799099,-1.653400,69.642120,105.991997,3266.423584,0.000000,1400.000000,0.000000,0.000000,0.000000,0.998095,-0.001000,-0.847000,-0.528000,1.002759,-0.001000,-0.850000,-0.532000,999.000000,-5725825688034211243127463739392.000000,999.000000,0.000000,999.000000,0.000000,14,1,3,1
1736274116,7,3,0,42.799099,-1.653000,68.473869,103.177002,3284.689209,0.000000,1400.000000,0.000000,0.000000,0.000000,0.998095,-0.001000,-0.847000,-0.528000,1.003114,-0.001000,-0.846000,-0.539000,999.000000,-5725825688034211243127463739392.000000,999.000000,0.000000,999.000000,0.000000,14,1,3,1
1736274117,7,3,0,42.799000,-1.652600,67.078186,100.294998,3305.360352,0.000000,1400.000000,0.000000,0.000000,0.000000,0.998307,-0.001000,-0.846000,-0.530000,1.001597,-0.002000,-0.848000,-0.533000,999.000000,-5725825688034211243127463739392.000000,999.000000,0.000000,999.000000,0.000000,14,1,3,1
1736274118,7,3,0,42.799000,-1.652200,65.676674,97.016998,3327.028809,0.000000,1400.000000,0.000000,0.000000,0.000000,0.998095,-0.001000,-0.847000,-0.528000,1.002442,0.000000,-0.849000,-0.533000,999.000000,-5725825688034211243127463739392.000000,999.000000,0.000000,999.000000,0.000000,14,1,3,1
1736274119,7,3,0,42.799000,-1.651800,64.333481,93.547997,3348.901855,0.000000,1400.000000,0.000000,0.000000,0.000000,0.998095,-0.001000,-0.847000,-0.528000,1.002663,-0.002000,-0.848000,-0.535000,999.000000,-5725825688034211243127463739392.000000,999.000000,0.000000,999.000000,0.000000,14,1,3,1
1736274120,7,3,0,42.799000,-1.651400,63.242981,91.908997,3370.275879,0.000000,1400.000000,0.000000,0.000000,0.000000,0.999472,0.000000,-0.848000,-0.529000,1.002443,-0.001000,-0.849000,-0.533000,999.000000,-5725825688034211243127463739392.000000,999.000000,0.000000,999.000000,0.000000,14,1,3,1
1736274121,5,3,5,51.526272,-0.097840,0.000000,0.000000,81.922958,-150.000000,1.000000,3.062205,0.000000,30.000000,0.997778,-0.002000,-0.846000,-0.529000,1.001063,0.000000,-0.848000,-0.532000,999.000000,-5725825688034211243127463739392.000000,999.000000,0.000000,999.000000,0.000000,14,2,1,1
1736274121,7,3,0,42.798901,-1.651000,62.696762,91.418999,3390.149170,0.000000,1400.000000,0.000000,0.000000,0.000000,0.999687,-0.002000,-0.847000,-0.531000,1.001063,0.000000,-0.848000,-0.532000,999.000000,-5725825688034211243127463739392.000000,999.000000,0.000000,999.000000,0.000000,14,1,3,1
1736274122,7,3,0,42.798901,-1.650600,63.408207,90.272003,3405.127197,0.000000,1400.000000,0.000000,0.000000,0.000000,0.998417,-0.002000,-0.848000,-0.527000,1.001596,-0.001000,-0.848000,-0.533000,999.000000,-5725825688034211243127463739392.000000,999.000000,0.000000,999.000000,0.000000,14,1,3,1
1736274123,7,3,0,42.798901,-1.650200,64.840820,89.541000,3413.822754,0.000000,1400.000000,0.000000,0.000000,0.000000,0.998415,0.000000,-0.848000,-0.527000,1.002128,-0.001000,-0.848000,-0.534000,999.000000,-5725825688034211243127463739392.000000,999.000000,0.000000,999.000000,0.000000,14,1,3,1
1736274124,7,3,0,42.798901,-1.649800,66.887688,89.329002,3416.787354,0.000000,1400.000000,0.000000,0.000000,0.000000,0.979762,0.000000,-0.853000,-0.482000,1.049709,0.008000,-0.825000,-0.649000,999.000000,-5725825688034211243127463739392.000000,999.000000,0.000000,999.000000,0.000000,14,1,3,1
1736274125,7,3,0,42.799000,-1.649300,69.399139,89.254997,3414.846436,0.000000,1400.000000,0.000000,0.000000,0.000000,0.979762,0.000000,-0.853000,-0.482000,1.003730,0.000000,-0.848000,-0.537000,999.000000,-5725825688034211243127463739392.000000,999.000000,0.000000,999.000000,0.000000,14,1,3,1
1736274126,7,3,0,42.799000,-1.648900,72.190498,89.163002,3409.166016,0.000000,1400.000000,0.000000,0.000000,0.000000,0.997568,-0.002000,-0.847000,-0.527000,1.015658,-0.001000,-0.844000,-0.565000,999.000000,-5725825688034211243127463739392.000000,999.000000,0.000000,999.000000,0.000000,14,1,3,1
1736274127,7,3,0,42.799000,-1.648400,75.088768,89.402000,3401.019287,0.000000,1400.000000,0.000000,0.000000,0.000000,0.996511,-0.001000,-0.847000,-0.525000,1.015658,-0.001000,-0.844000,-0.565000,999.000000,-5725825688034211243127463739392.000000,999.000000,0.000000,999.000000,0.000000,14,1,3,1
1736274128,7,3,0,42.799000,-1.647900,77.926781,90.188004,3391.698486,0.000000,1400.000000,0.000000,0.000000,0.000000,0.989243,-0.003000,-0.844000,-0.516000,1.005394,0.000000,-0.837000,-0.557000,999.000000,-5725825688034211243127463739392.000000,999.000000,0.000000,999.000000,0.000000,14,1,3,1
1736274129,7,3,0,42.799000,-1.647400,80.549026,91.524002,3382.490234,0.000000,1400.000000,0.000000,0.000000,0.000000,0.989243,-0.003000,-0.844000,-0.516000,1.009833,0.000000,-0.841000,-0.559000,999.000000,-5725825688034211243127463739392.000000,999.000000,0.000000,999.000000,0.000000,14,1,3,1
1736274130,7,3,0,42.798901,-1.646900,82.809723,93.429001,3374.582031,0.000000,1400.000000,0.000000,0.000000,0.000000,0.995786,-0.001000,-0.848000,-0.522000,1.013164,-0.003000,-0.843000,-0.562000,999.000000,-5725825688034211243127463739392.000000,999.000000,0.000000,999.000000,0.000000,14,1,3,1
1736274131,5,3,5,51.526272,-0.097841,0.000000,0.000000,81.923035,-150.000000,1.000000,5.687089,0.000000,30.000406,0.999057,-0.001000,-0.845000,-0.533000,0.999370,-0.001000,-0.846000,-0.532000,999.000000,-5725825688034211243127463739392.000000,999.000000,0.000000,999.000000,0.000000,14,2,1,1
1736274131,7,3,0,42.798901,-1.646400,84.609718,95.949997,3368.980225,0.000000,1400.000000,0.000000,0.000000,0.000000,0.948060,-0.004000,-0.860000,-0.399000,1.037986,-0.001000,-0.842000,-0.607000,999.000000,-5725825688034211243127463739392.000000,999.000000,0.000000,999.000000,0.000000,14,1,3,1
1736274132,7,3,0,42.798801,-1.645900,85.711876,100.007004,3367.241455,0.000000,1400.000000,0.000000,0.000000,0.000000,0.996835,0.000000,-0.848000,-0.524000,1.014555,-0.001000,-0.842000,-0.566000,999.000000,-5725825688034211243127463739392.000000,999.000000,0.000000,999.000000,0.000000,14,1,3,1
1736274133,7,3,0,42.798801,-1.645300,85.525269,103.202003,3373.419678,0.000000,1400.000000,0.000000,0.000000,0.000000,0.999687,-0.002000,-0.847000,-0.531000,1.004575,-0.001000,-0.849000,-0.537000,999.000000,-5725825688034211243127463739392.000000,999.000000,0.000000,999.000000,0.000000,14,1,3,1
1736274134,7,3,0,42.798698,-1.644800,83.927429,104.560997,3388.622803,0.000000,1400.000000,0.000000,0.000000,0.000000,0.983491,-0.002000,-0.851000,-0.493000,1.052864,0.009000,-0.829000,-0.649000,999.000000,-5725825688034211243127463739392.000000,999.000000,0.000000,999.000000,0.000000,14,1,3,1
1736274135,7,3,0,42.798599,-1.644300,81.159393,105.634003,3412.275146,0.000000,1400.000000,0.000000,0.000000,0.000000,0.983491,-0.002000,-0.851000,-0.493000,1.002354,-0.003000,-0.847000,-0.536000,999.000000,-5725825688034211243127463739392.000000,999.000000,0.000000,999.000000,0.000000,14,1,3,1
1736274136,7,3,0,42.798500,-1.643800,77.584663,106.953003,3442.866455,0.000000,1400.000000,0.000000,0.000000,0.000000,0.954806,-0.002000,-0.853000,-0.429000,1.040817,-0.002000,-0.836000,-0.620000,999.000000,-5725825688034211243127463739392.000000,999.000000,0.000000,999.000000,0.000000,14,1,3,1
1736274137,5,3,5,51.526268,-0.097845,0.000000,0.000000,81.923782,-150.000000,1.000000,14.947265,0.000000,30.000000,0.999155,-0.001000,-0.847000,-0.530000,1.001816,-0.001000,-0.847000,-0.535000,999.000000,-5725825688034211243127463739392.000000,999.000000,0.000000,999.000000,0.000000,14,2,1,1
1736274137,7,3,0,42.798401,-1.643400,73.973000,107.801003,3478.285400,0.000000,1400.000000,0.000000,0.000000,0.000000,0.999155,-0.001000,-0.847000,-0.530000,1.002665,-0.003000,-0.848000,-0.535000,999.000000,-5725825688034211243127463739392.000000,999.000000,0.000000,999.000000,0.000000,14,1,3,1
1736274138,7,3,0,42.798302,-1.642900,72.355721,107.350998,3511.621826,0.000000,1400.000000,0.000000,0.000000,0.000000,0.997464,-0.003000,-0.845000,-0.530000,1.002889,-0.003000,-0.847000,-0.537000,999.000000,-5725825688034211243127463739392.000000,999.000000,0.000000,999.000000,0.000000,14,1,3,1
1736274139,7,3,0,42.798199,-1.642500,70.067818,107.206001,3541.972656,0.000000,1400.000000,0.000000,0.000000,0.000000,0.998211,0.000000,-0.849000,-0.525000,1.003653,-0.002000,-0.846000,-0.540000,999.000000,-5725825688034211243127463739392.000000,999.000000,0.000000,999.000000,0.000000,14,1,3,1
1736274140,7,3,0,42.798100,-1.642100,68.046219,106.091003,3571.081787,0.000000,1400.000000,0.000000,0.000000,0.000000,0.998212,-0.001000,-0.849000,-0.525000,1.001595,0.000000,-0.848000,-0.533000,999.000000,-5725825688034211243127463739392.000000,999.000000,0.000000,999.000000,0.000000,14,1,3,1
1736274141,7,3,0,42.798000,-1.641700,66.656372,104.996002,3597.952393,0.000000,1400.000000,0.000000,0.000000,0.000000,0.995785,0.000000,-0.848000,-0.522000,1.003423,-0.002000,-0.847000,-0.538000,999.000000,-5725825688034211243127463739392.000000,999.000000,0.000000,999.000000,0.000000,14,1,3,1
1736274142,7,3,0,42.797901,-1.641300,65.804970,104.241997,3621.100342,0.000000,1400.000000,0.000000,0.000000,0.000000,0.998865,-0.001000,-0.851000,-0.523000,1.003423,-0.002000,-0.847000,-0.538000,999.000000,-5725825688034211243127463739392.000000,999.000000,0.000000,999.000000,0.000000,14,1,3,1
1736274143,7,3,0,42.797901,-1.640900,65.215981,103.755997,3641.131348,0.000000,1400.000000,0.000000,0.000000,0.000000,0.999156,-0.002000,-0.847000,-0.530000,1.005201,-0.002000,-0.851000,-0.535000,999.000000,-5725825688034211243127463739392.000000,999.000000,0.000000,999.000000,0.000000,14,1,3,1
1736274144,7,3,0,42.797798,-1.640500,64.665878,103.403000,3659.073486,0.000000,1400.000000,0.000000,0.000000,0.000000,0.995069,0.000000,-0.849000,-0.519000,1.005875,0.000000,-0.848000,-0.541000,999.000000,-5725825688034211243127463739392.000000,999.000000,0.000000,999.000000,0.000000,14,1,3,1
1736274145,7,3,0,42.797699,-1.640100,64.765007,102.536003,3675.108643,0.000000,1400.000000,0.000000,0.000000,0.000000,0.998309,-0.002000,-0.846000,-0.530000,1.002887,-0.002000,-0.847000,-0.537000,999.000000,-5725825688034211243127463739392.000000,999.000000,0.000000,999.000000,0.000000,14,1,3,1
1736274146,7,3,0,42.797699,-1.639700,65.256805,101.799004,3687.620850,0.000000,1400.000000,0.000000,0.000000,0.000000,0.997040,-0.002000,-0.847000,-0.526000,1.003433,-0.005000,-0.847000,-0.538000,999.000000,-5725825688034211243127463739392.000000,999.000000,0.000000,999.000000,0.000000,14,1,3,1
1736274147,7,3,0,42.797600,-1.639300,65.997406,101.531998,3697.562744,0.000000,1400.000000,0.000000,0.000000,0.000000,0.997040,-0.002000,-0.847000,-0.526000,1.002128,-0.001000,-0.848000,-0.534000,999.000000,-5725825688034211243127463739392.000000,999.000000,0.000000,999.000000,0.000000,14,1,3,1
1736274148,7,3,0,42.797501,-1.638900,66.673866,101.771004,3706.224854,0.000000,1400.000000,0.000000,0.000000,0.000000,0.998013,0.000000,-0.850000,-0.523000,1.003197,-0.002000,-0.848000,-0.536000,999.000000,-5725825688034211243127463739392.000000,999.000000,0.000000,999.000000,0.000000,14,1,3,1
1736274149,7,3,0,42.797501,-1.638500,67.288124,102.013000,3714.936768,0.000000,1400.000000,0.000000,0.000000,0.000000,0.998944,-0.001000,-0.848000,-0.528000,1.002889,-0.003000,-0.847000,-0.537000,999.000000,-0.000573,999.000000,-0.002468,999.000000,-0.001821,14,1,3,1
1736274150,7,3,0,42.797401,-1.638100,67.797409,102.281998,3724.067871,0.000000,1400.000000,0.000000,0.000000,0.000000,0.999685,0.000000,-0.847000,-0.531000,1.002661,-0.001000,-0.848000,-0.535000,999.000000,-5725825688034211243127463739392.000000,999.000000,0.000000,999.000000,0.000000,14,1,3,1
1736274151,7,3,0,42.797298,-1.637600,68.155075,102.398003,3733.936768,0.000000,1400.000000,0.000000,0.000000,0.000000,0.998944,-0.001000,-0.848000,-0.528000,1.003195,-0.001000,-0.848000,-0.536000,999.000000,-5725825688034211243127463739392.000000,999.000000,0.000000,999.000000,0.000000,14,1,3,1
1736274152,5,3,5,51.526279,-0.097891,0.000000,0.000000,81.941658,-150.000000,1.000000,16.794601,0.000000,30.000000,0.998840,-0.002000,-0.846000,-0.531000,1.001913,-0.002000,-0.849000,-0.532000,999.000000,-5725825688034211243127463739392.000000,999.000000,0.000000,999.000000,0.000000,14,2,1,1
1736274152,7,3,0,42.797298,-1.637200,68.320305,102.387001,3744.860596,0.000000,1400.000000,0.000000,0.000000,0.000000,1.000217,-0.001000,-0.847000,-0.532000,1.001913,-0.002000,-0.849000,-0.532000,999.000000,-5725825688034211243127463739392.000000,999.000000,0.000000,999.000000,0.000000,14,1,3,1
1736274153,7,3,0,42.797199,-1.636800,68.275597,102.182999,3757.002930,0.000000,1400.000000,0.000000,0.000000,0.000000,0.999473,-0.001000,-0.848000,-0.529000,1.001911,-0.001000,-0.849000,-0.532000,999.000000,-5725825688034211243127463739392.000000,999.000000,0.000000,999.000000,0.000000,14,1,3,1
1736274154,7,3,0,42.797199,-1.636400,68.141472,101.903000,3770.248047,0.000000,1400.000000,0.000000,0.000000,0.000000,0.998624,0.000000,-0.847000,-0.529000,1.002350,-0.001000,-0.847000,-0.536000,999.000000,-5725825688034211243127463739392.000000,999.000000,0.000000,999.000000,0.000000,14,1,3,1
1736274155,7,3,0,42.797100,-1.635900,68.065659,101.676003,3785.458984,0.000000,1400.000000,0.000000,0.000000,0.000000,0.998624,0.000000,-0.847000,-0.529000,1.001381,-0.001000,-0.849000,-0.531000,999.000000,-5725825688034211243127463739392.000000,999.000000,0.000000,999.000000,0.000000,14,1,3,1
1736274156,7,3,0,42.797001,-1.635500,68.038445,101.643997,3797.792236,0.000000,1400.000000,0.000000,0.000000,0.000000,0.998625,-0.001000,-0.847000,-0.529000,1.001282,-0.001000,-0.847000,-0.534000,999.000000,-5725825688034211243127463739392.000000,999.000000,0.000000,999.000000,0.000000,14,1,3,1
1736274157,7,3,0,42.797001,-1.635100,68.052055,101.721001,3810.743408,0.000000,1400.000000,0.000000,0.000000,0.000000,0.999155,-0.001000,-0.847000,-0.530000,1.001284,-0.002000,-0.847000,-0.534000,999.000000,-5725825688034211243127463739392.000000,999.000000,0.000000,999.000000,0.000000,14,1,3,1
1736274158,7,3,0,42.796902,-1.634700,68.104538,101.851997,3823.397217,0.000000,1400.000000,0.000000,0.000000,0.000000,0.998624,0.000000,-0.847000,-0.529000,1.000533,-0.001000,-0.848000,-0.531000,999.000000,-5725825688034211243127463739392.000000,999.000000,0.000000,999.000000,0.000000,14,1,3,1
1736274159,7,3,0,42.796799,-1.634300,68.199783,102.013000,3835.762695,0.000000,1400.000000,0.000000,0.000000,0.000000,0.999155,-0.001000,-0.847000,-0.530000,1.001596,-0.001000,-0.848000,-0.533000,999.000000,-5725825688034211243127463739392.000000,999.000000,0.000000,999.000000,0.000000,14,1,3,1
1736274160,7,3,0,42.796799,-1.633800,68.322243,102.113998,3847.882324,0.000000,1400.000000,0.000000,0.000000,0.000000,0.999472,0.000000,-0.848000,-0.529000,1.002130,-0.002000,-0.848000,-0.534000,999.000000,-5725825688034211243127463739392.000000,999.000000,0.000000,999.000000,0.000000,14,1,3,1
1736274161,7,3,0,42.796700,-1.633400,68.454430,102.112000,3859.817871,0.000000,1400.000000,0.000000,0.000000,0.000000,0.999473,-0.001000,-0.848000,-0.529000,1.001596,-0.001000,-0.848000,-0.533000,999.000000,-5725825688034211243127463739392.000000,999.000000,0.000000,999.000000,0.000000,14,1,3,1
1736274162,7,3,0,42.796600,-1.633000,68.590500,102.098000,3871.637695,0.000000,1400.000000,0.000000,0.000000,0.000000,0.998838,-0.001000,-0.846000,-0.531000,1.001596,-0.001000,-0.848000,-0.533000,999.000000,-5725825688034211243127463739392.000000,999.000000,0.000000,999.000000,0.000000,14,1,3,1
1736274163,7,3,0,42.796600,-1.632600,68.720734,102.137001,3883.395996,0.000000,1400.000000,0.000000,0.000000,0.000000,0.999685,-0.001000,-0.847000,-0.531000,1.001597,-0.002000,-0.848000,-0.533000,999.000000,-5725825688034211243127463739392.000000,999.000000,0.000000,999.000000,0.000000,14,1,3,1
